[
    {
        "id": 1,
        "category": "Hospital",
        "categoryId": 1,
        "name": "DHCM",
        "latitude": 75.12455,
        "longitude": 80.12466,
        "contact":  "http://rmrc.res.in/",
        "phoneNumber": [9632547852],
        "state": "Andhra Pradesh",
        "district": "Vijayawada",
        "city": "Vijayawada",
        "country": "India",
        "profilePic": "",
        "description": "Government approved and supported Testing labs by ICMR"
    },
    {
        "id": 2,
        "category": "CoVID-19 Testing Lab",
        "categoryId": 2,
        "name": "Regional Medical Research Center, NE Region",
        "latitude": 75.12455,
        "longitude": 80.12466,
        "contact":  "http://rmrcne.org.in/",
        "phoneNumber": [987463145],
        "state": "Assam",
        "district": "Dibrugarh",
        "city": "Dibrugarh",
        "country": "India",
        "profilePic": "",
        "description": "Government approved and supported Testing labs by ICMR"
    },
    {
        "id": 3,
        "category": "Hospital",
        "categoryId": 1,
        "name": "KMCH",
        "latitude": 75.12455,
        "longitude": 80.12466,
        "contact":  "http://test.com/",
        "phoneNumber": [8896547132],
        "state": "Tamil nadu",
        "district": "Coimbatore",
        "city": "Coimbatore",
        "country": "India",
        "profilePic": "",
        "description": "Government approved and supported Testing labs by ICMR"
    },
    {
        "id": 4,
        "category": "Hospital",
        "categoryId": 1,
        "name": "PSG",
        "latitude": 75.12455,
        "longitude": 80.12466,
        "contact":  "http://test.com/",
        "phoneNumber": [7373479512],
        "state": "Tamil nadu",
        "district": "Coimbatore",
        "city": "Coimbatore",
        "country": "India",
        "profilePic": "",
        "description": "Government approved and supported Testing labs by ICMR"
    },
    {
        "id": 5,
        "category": "Hospital",
        "categoryId": 1,
        "name": "Ganga",
        "latitude": 75.12455,
        "longitude": 80.12466,
        "contact":  "http://test.com/",
        "phoneNumber": [8012467896],
        "state": "Tamil nadu",
        "district": "Coimbatore",
        "city": "Coimbatore",
        "country": "India",
        "profilePic": "",
        "description": "Government approved and supported Testing labs by ICMR"
    },
    {
        "id": 6,
        "category": "Hospital",
        "categoryId": 1,
        "name": "Apollo",
        "latitude": 75.12455,
        "longitude": 80.12466,
        "contact":  "http://test.com/",
        "phoneNumber": [9547863210],
        "state": "Tamil Nadu",
        "district": "Chennai",
        "city": "Chennai",
        "country": "India",
        "profilePic": "",
        "description": "Government approved and supported Testing labs by ICMR"
    },
    {
        "id": 7,
        "category": "Hospital",
        "categoryId": 1,
        "name": "DHL",
        "latitude": 75.12455,
        "longitude": 80.12466,
        "contact":  "http://test.com/",
        "phoneNumber": [9863245710],
        "state": "Assam",
        "district": "Dibrugarh",
        "city": "Dibrugarh",
        "country": "India",
        "profilePic": "",
        "description": "Government approved and supported Testing labs by ICMR"
    },
    {
        "id": 8,
        "category": "Hospital",
        "categoryId": 1,
        "name": "DHCM",
        "latitude": 75.12455,
        "longitude": 80.12466,
        "contact":  "http://rmrc.res.in/",
        "phoneNumber": [9987456321],
        "state": "Andhra Pradesh",
        "district": "Chittor",
        "city": "Chittor",
        "country": "India",
        "profilePic": "",
        "description": "Government approved and supported Testing labs by ICMR"
    },
    {
        "id": 9,
        "category": "Hospital",
        "categoryId": 1,
        "name": "DHCM",
        "latitude": 75.12455,
        "longitude": 80.12466,
        "contact":  "http://test.com/",
        "phoneNumber": [91246789654],
        "state": "Andhra Pradesh",
        "district": "Srikakakulam",
        "city": "Srikakakulam",
        "country": "India",
        "profilePic": "",
        "description": "Government approved and supported Testing labs by ICMR"
    },
    {
        "id": 10,
        "category": "Hospital",
        "categoryId": 1,
        "name": "DHCM",
        "latitude": 75.12455,
        "longitude": 80.12466,
        "contact":  "http://test.com/",
        "phoneNumber": [9013647858],
        "state": "Andhra Pradesh",
        "district": "Krishna",
        "city": "Krishna",
        "country": "India",
        "profilePic": "",
        "description": "Government approved and supported Testing labs by ICMR"
    },
    {
        "id": 11,
        "category": "Hospital",
        "categoryId": 1,
        "name": "DHCM",
        "latitude": 75.12455,
        "longitude": 80.12466,
        "contact":  "http://test.com/",
        "phoneNumber": [457954225],
        "state": "Andhra Pradesh",
        "district": "West Godaveri",
        "city": "West Godaveri",
        "country": "India",
        "profilePic": "",
        "description": "Government approved and supported Testing labs by ICMR"
    },
    {
        "id": 12,
        "category": "Hospital",
        "categoryId": 1,
        "name": "DHCM",
        "latitude": 75.12455,
        "longitude": 80.12466,
        "contact":  "http://test.com/",
        "phoneNumber": [4546762000],
        "state": "Andhra Pradesh",
        "district": "Guntur",
        "city": "Guntur",
        "country": "India",
        "profilePic": "",
        "description": "Government approved and supported Testing labs by ICMR"
    },
    {
        "id": 13,
        "category": "Hospital",
        "categoryId": 1,
        "name": "Saint Peters",
        "latitude": 75.12455,
        "longitude": 80.12466,
        "contact":  "http://test.com/",
        "phoneNumber": [886632178],
        "state": "Uttar Pradesh",
        "district": "Kanpur",
        "city": "Kanpur",
        "country": "India",
        "profilePic": "",
        "description": "Government approved and supported Testing labs by ICMR"
    }
]